[{"business_id": "rncjoVoEFUJGCUoC1JgnUA", "full_address": "8466 W Peoria Ave\nSte 6\nPeoria, AZ 85345", "open": true, "categories": ["Accountants", "Professional Services", "Tax Services", "Financial Services"], "city": "Peoria", "review_count": 3, "name": "Peoria Income Tax Service", "neighborhoods": [], "longitude": -112.241596, "state": "AZ", "stars": 5.0, "latitude": 33.581867000000003, "type": "business"},
{"business_id": "0FNFSzCFP_rGUoJx8W7tJg", "full_address": "2149 W Wood Dr\nPhoenix, AZ 85029", "open": true, "categories": ["Sporting Goods", "Bikes", "Shopping"], "city": "Phoenix", "review_count": 5, "name": "Bike Doctor", "neighborhoods": [], "longitude": -112.10593299999999, "state": "AZ", "stars": 5.0, "latitude": 33.604053999999998, "type": "business"},
{"business_id": "3f_lyB6vFK48ukH6ScvLHg", "full_address": "1134 N Central Ave\nPhoenix, AZ 85004", "open": true, "categories": [], "city": "Phoenix", "review_count": 4, "name": "Valley Permaculture Alliance", "neighborhoods": [], "longitude": -112.07393329999999, "state": "AZ", "stars": 5.0, "latitude": 33.460525799999999, "type": "business"},
{"business_id": "usAsSV36QmUej8--yvN-dg", "full_address": "845 W Southern Ave\nPhoenix, AZ 85041", "open": true, "categories": ["Food", "Grocery"], "city": "Phoenix", "review_count": 5, "name": "Food City", "neighborhoods": [], "longitude": -112.0853773, "state": "AZ", "stars": 3.5, "latitude": 33.392209899999997, "type": "business"},
{"business_id": "PzOqRohWw7F7YEPBz6AubA", "full_address": "6520 W Happy Valley Rd\nSte 101\nGlendale Az, AZ 85310", "open": true, "categories": ["Food", "Bagels", "Delis", "Restaurants"], "city": "Glendale Az", "review_count": 14, "name": "Hot Bagels & Deli", "neighborhoods": [], "longitude": -112.200264, "state": "AZ", "stars": 3.5, "latitude": 33.712797000000002, "type": "business"},
{"business_id": "gtQzAiy7D-dPU8WzT3jX3Q", "full_address": "The Americana at Brand\n869 Americana Way\nGlendale, CA 91210", "open": true, "categories": ["Women's Clothing", "Fashion", "Shopping"], "city": "Glendale", "review_count": 6, "name": "Barney's New York Co-op", "neighborhoods": [], "longitude": -112.481632232666, "state": "CA", "stars": 4.5, "latitude": 33.6077660588006, "type": "business"},
{"business_id": "FrBCYtCS_jydDjg1KsIgWQ", "full_address": "1850 W Camelback Rd\nSte 1\nPhoenix, AZ 85015", "open": true, "categories": ["Music & DVDs", "Books, Mags, Music & Video", "Vinyl Records", "Shopping"], "city": "Phoenix", "review_count": 21, "name": "Zia Record Exchange", "neighborhoods": [], "longitude": -112.0987501, "state": "AZ", "stars": 3.5, "latitude": 33.509658199999997, "type": "business"},
{"business_id": "yaXAD-Mv2K2PEZobmqjIYA", "full_address": "3415 W Northern Ave\nPhoenix, AZ 85051", "open": true, "categories": ["Event Planning & Services", "Venues & Event Spaces"], "city": "Phoenix", "review_count": 4, "name": "Reflections Bingo", "neighborhoods": [], "longitude": -112.13286600000001, "state": "AZ", "stars": 5.0, "latitude": 33.551903000000003, "type": "business"},
{"business_id": "o3ehs4ZEdsizbJyB9_j7uQ", "full_address": "6938 E 1st St\nScottsdale, AZ 85251", "open": true, "categories": ["Art Schools", "Specialty Schools", "Shopping", "Jewelry", "Accessories", "Fashion", "Education"], "city": "Scottsdale", "review_count": 14, "name": "Jam", "neighborhoods": [], "longitude": -111.9312992, "state": "AZ", "stars": 5.0, "latitude": 33.492195000000002, "type": "business"},
{"business_id": "qarobAbxGSHI7ygf1f7a_Q", "full_address": "891 E Baseline Rd\nSuite 102\nGilbert, AZ 85233", "open": true, "categories": ["Sandwiches", "Restaurants"], "city": "Gilbert", "review_count": 10, "name": "Jersey Mike's Subs", "neighborhoods": [], "longitude": -111.8120071, "state": "AZ", "stars": 3.5, "latitude": 33.378838500000001, "type": "business"}]